[
  {
    "id": "kunimi-community-center",
    "name": "国見公民館",
    "address": "鮎川町133-1-3",
    "lat": 36.094336,
    "lng": 136.032054,
    "category": "facility"
  },
  {
    "id": "watariglass",
    "name": "ワタリグラススタジオ",
    "address": "鮎川町17-14",
    "lat": 36.0988437,
    "lng": 136.0347453,
    "category": "facility"
  },
  {
    "id": "shino-salt",
    "name": "志野製塩所",
    "address": "鮎川町133-1-1",
    "lat": 36.0951029,
    "lng": 136.0301084,
    "category": "facility"
  },
  {
    "id": "ishimaru",
    "name": "ホテル割烹 石丸",
    "address": "鮎川町94-8-1",
    "lat": 36.090675,
    "lng": 136.031663,
    "category": "facility"
  },
  {
    "id": "kunimi-kurage",
    "name": "くにみクラゲ公民館",
    "address": "鮎川町195-7",
    "lat": 36.0893116,
    "lng": 136.031015,
    "category": "facility"
  },
  {
    "id": "ancient-museum",
    "name": "古代生物ミュージアム",
    "address": "鮎川町167-3-6",
    "lat": 36.0837152,
    "lng": 136.0292656,
    "category": "facility"
  },
  {
    "id": "cafe-mare",
    "name": "カフェマーレ",
    "address": "大丹生町70-3",
    "lat": 36.076644,
    "lng": 136.0254997,
    "category": "facility"
  },
  { "id": "ayukawa-20-2-14",
    "name": "大道寺寿邸",
    "address": "鮎川町20-2-14",
    "lat": 36.0974822,
    "lng": 136.0348047,
    "category": "property",
    "status": "survey"
  },
  { "id": "ayukawa-21-1-19",
    "name": "福島伸一邸",
    "address": "鮎川町21-1-19",
    "lat": 36.0963848,
    "lng": 136.0338015,
    "category": "property",
    "status": "survey"
  },
  { 
    "id": "ayukawa-92-12",
    "name": "浅井善昭邸",
    "address": "鮎川町92-12",
    "lat": 36.0915139,
    "lng": 136.0331419,
    "category": "property",
    "status": "survey"
  },
  { "id": "ayukawa-95-23",
    "name": "竹内倫自邸",
    "address": "鮎川町95-23",
    "lat": 36.0929909,
    "lng": 136.031945,
    "category": "property",
    "status": "survey"
  },
  { "id": "ayukawa-95-8",
    "name": "坪内修一邸",
    "address": "鮎川町95-8",
    "lat": 36.0918386,
    "lng": 136.0322301,
    "category": "property",
    "status": "survey"
  },
  { "id": "ayukawa-96-44-1",
    "name": "浅井治邸",
    "address": "鮎川町96-44-1",
    "lat": 36.0915157,
    "lng": 136.0322494,
    "category": "property",
    "status": "survey"
  },
  { "id": "kunimi-27-1-1",
    "name": "高橋十兵衛邸",
    "address": "国見町27-1-1",
    "lat": 36.0967703,
    "lng": 136.0587507,
    "category": "property",
    "status": "survey"
  },
  { "id": "kunimi-27-2",
    "name": "林みどり邸",
    "address": "国見町27-2",
    "lat": 36.0967526,
    "lng": 136.0585102,
    "category": "property",
    "status": "survey"
  },
  { "id": "onyu-1-18",
    "name": "河野時子邸",
    "address": "大丹生町1-18",
    "lat": 36.0717168,
    "lng": 136.0260656,
    "category": "property",
    "status": "survey"
  },
  { "id": "onyu-3-12-1",
    "name": "樋口法紹邸",
    "address": "大丹生町3-12-1",
    "lat": 36.0722222,
    "lng": 136.0293333,
    "category": "property",
    "status": "survey"
  },
  { "id": "onyu-48-7",
    "name": "清水みなこ邸",
    "address": "大丹生町48-7",
    "lat": 36.073159,
    "lng": 136.0269738,
    "category": "property",
    "status": "survey"
  },
  { "id": "konyu-2-4",
    "name": "林美鈴邸",
    "address": "小丹生町2-4",
    "lat": 36.0708072,
    "lng": 136.025302,
    "category": "property",
    "status": "survey"
  },
  { "id": "konyu-3-23",
    "name": "田中美代子邸",
    "address": "小丹生町3-23",
    "lat": 36.0695702,
    "lng": 136.0249876,
    "category": "property",
    "status": "survey"
  },
  { "id": "konyu-42-4",
    "name": "川本のぼる邸",
    "address": "小丹生町42-4",
    "lat": 36.0698341,
    "lng": 136.0242377,
    "category": "property",
    "status": "survey"
  },
  { "id": "konyu-42-5",
    "name": "鈴木ゆういち邸",
    "address": "小丹生町42-5",
    "lat": 36.0701446,
    "lng": 136.0239627,
    "category": "property",
    "status": "survey"
  },
  { "id": "konyu-45-9",
    "name": "妙高栄次邸",
    "address": "小丹生町45-9",
    "lat": 36.0703871,
    "lng": 136.0235123,
    "category": "property",
    "status": "survey" }
]
